{'items': [{'title': 'Metallurgical Engineering & Materials Science-Mems', 'id': 'here:pds:place:356te7ug-5e795a686a303b640ebf6780998dae99', 'language': 'en', 'resultType': 'place', 'address': {'label': 'Metallurgical Engineering & Materials Science-Mems, Iit Area, Powai, Mumbai 400076, India', 'countryCode': 'IND', 'countryName': 'India', 'stateCode': 'MH', 'state': 'Maharashtra', 'county': 'Mumbai Suburban', 'city': 'Mumbai', 'district': 'Powai', 'subdistrict': 'Iit Area', 'postalCode': '400076'}, 'position': {'lat': 19.13115, 'lng': 72.91639}, 'access': [{'lat': 19.13113, 'lng': 72.91613}], 'distance': 1159, 'categories': [{'id': '800-8200-0360', 'name': 'Coaching Institute', 'primary': True}]}, {'title': 'Erts Lab Iit Bombay', 'id': 'here:pds:place:356te7ug-b0f6cde28309cbbf7f8c3538e9c58772', 'language': 'en', 'resultType': 'place', 'address': {'label': 'Erts Lab Iit Bombay, Iit Area, Powai, Mumbai 400076, India', 'countryCode': 'IND', 'countryName': 'India', 'stateCode': 'MH', 'state': 'Maharashtra', 'county': 'Mumbai Suburban', 'city': 'Mumbai', 'district': 'Powai', 'subdistrict': 'Iit Area', 'postalCode': '400076'}, 'position': {'lat': 19.13035, 'lng': 72.91602}, 'access': [{'lat': 19.13037, 'lng': 72.91616}], 'distance': 1160, 'categories': [{'id': '800-8250-0000', 'name': 'School', 'primary': True}], 'contacts': [{'phone': [{'value': '+912225764986'}, {'value': '+912225767901'}]}]}, {'title': 'GG Parking Services', 'id': 'here:pds:place:356te7ug-ab92d6cccf94492c91457a091476170a', 'language': 'en', 'resultType': 'place', 'address': {'label': 'GG Parking Services, Iit Area, Powai, Mumbai 400076, India', 'countryCode': 'IND', 'countryName': 'India', 'stateCode': 'MH', 'state': 'Maharashtra', 'county': 'Mumbai Suburban', 'city': 'Mumbai', 'district': 'Powai', 'subdistrict': 'Iit Area', 'postalCode': '400076'}, 'position': {'lat': 19.13165, 'lng': 72.91691}, 'access': [{'lat': 19.13158, 'lng': 72.91609}], 'distance': 1191, 'categories': [{'id': '800-8500-0178', 'name': 'Parking Lot', 'primary': True}]}, {'title': 'Lecture Hall Complex 2', 'id': 'here:pds:place:356te7ug-d8ec21e8a6b24563b42db93a7587da1f', 'language': 'en', 'resultType': 'place', 'address': {'label': 'Lecture Hall Complex 2, Iit Area, Powai, Mumbai 400076, India', 'countryCode': 'IND', 'countryName': 'India', 'stateCode': 'MH', 'state': 'Maharashtra', 'county': 'Mumbai Suburban', 'city': 'Mumbai', 'district': 'Powai', 'subdistrict': 'Iit Area', 'postalCode': '400076'}, 'position': {'lat': 19.1307, 'lng': 72.9166}, 'access': [{'lat': 19.13066, 'lng': 72.91617}], 'distance': 1199, 'categories': [{'id': '800-8200-0360', 'name': 'Coaching Institute', 'primary': True}, {'id': '800-8200-0000', 'name': 'Education Facility'}, {'id': '800-8250-0000', 'name': 'School'}]}, {'title': 'Lecture Hall Complex', 'id': 'here:pds:place:356te7ug-c5b7fb280691d514f0ab870d948dee92', 'language': 'en', 'resultType': 'place', 'address': {'label': 'Lecture Hall Complex, Iit Area, Powai, Mumbai 400076, India', 'countryCode': 'IND', 'countryName': 'India', 'stateCode': 'MH', 'state': 'Maharashtra', 'county': 'Mumbai Suburban', 'city': 'Mumbai', 'district': 'Powai', 'subdistrict': 'Iit Area', 'postalCode': '400076'}, 'position': {'lat': 19.1307, 'lng': 72.9166}, 'access': [{'lat': 19.13066, 'lng': 72.91617}], 'distance': 1199, 'categories': [{'id': '700-7250-0136', 'name': 'Business Facility', 'primary': True}]}, {'title': 'Metal Engineering Industries', 'id': 'here:pds:place:356te7ug-8d5a8309a8bf438890c92b15ec30dae9', 'language': 'en', 'resultType': 'place', 'address': {'label': 'Metal Engineering Industries, Iit Area, Powai, Mumbai 400076, India', 'countryCode': 'IND', 'countryName': 'India', 'stateCode': 'MH', 'state': 'Maharashtra', 'county': 'Mumbai Suburban', 'city': 'Mumbai', 'district': 'Powai', 'subdistrict': 'Iit Area', 'postalCode': '400076'}, 'position': {'lat': 19.1307, 'lng': 72.9166}, 'access': [{'lat': 19.13066, 'lng': 72.91617}], 'distance': 1199, 'categories': [{'id': '900-9200-0218', 'name': 'Industrial Zone', 'primary': True}]}, {'title': 'Indian Institute of Technology', 'id': 'here:pds:place:356te7ug-3aefc60651e2443ab02b0ebdad4d4c68', 'language': 'en', 'resultType': 'place', 'address': {'label': 'Indian Institute of Technology, Iit Area, Powai, Mumbai 400076, India', 'countryCode': 'IND', 'countryName': 'India', 'stateCode': 'MH', 'state': 'Maharashtra', 'county': 'Mumbai Suburban', 'city': 'Mumbai', 'district': 'Powai', 'subdistrict': 'Iit Area', 'postalCode': '400076'}, 'position': {'lat': 19.1307, 'lng': 72.9166}, 'access': [{'lat': 19.13066, 'lng': 72.91617}], 'distance': 1199, 'categories': [{'id': '800-8200-0295', 'name': 'Training & Development', 'primary': True}], 'contacts': [{'phone': [{'value': '+912225767030'}], 'www': [{'value': 'http://www.ircc.iitb.ac.in/'}]}]}, {'title': 'Department of Metallurgical Engineering & Materials Science', 'id': 'here:pds:place:356te7ug-15db127ed390bdb1f2ac7af81bb3952c', 'language': 'en', 'resultType': 'place', 'address': {'label': 'Department of Metallurgical Engineering & Materials Science, Iit Area, Powai, Mumbai 400076, India', 'countryCode': 'IND', 'countryName': 'India', 'stateCode': 'MH', 'state': 'Maharashtra', 'county': 'Mumbai Suburban', 'city': 'Mumbai', 'district': 'Powai', 'subdistrict': 'Iit Area', 'postalCode': '400076'}, 'position': {'lat': 19.1307, 'lng': 72.9166}, 'access': [{'lat': 19.13066, 'lng': 72.91617}], 'distance': 1199, 'categories': [{'id': '800-8200-0000', 'name': 'Education Facility', 'primary': True}], 'contacts': [{'phone': [{'value': '+912225767601'}], 'www': [{'value': 'https://met.iitb.ac.in'}]}], 'openingHours': [{'text': ['Mon-Fri: 09:00 - 17:30'], 'isOpen': True, 'structured': [{'start': 'T090000', 'duration': 'PT08H30M', 'recurrence': 'FREQ:DAILY;BYDAY:MO,TU,WE,TH,FR'}]}]}, {'title': 'Iit Department of Physics', 'id': 'here:pds:place:356te7ug-c6951ceb8c844cd78404d8178ec06046', 'language': 'en', 'resultType': 'place', 'address': {'label': 'Iit Department of Physics, Iit Area, Powai, Mumbai 400076, India', 'countryCode': 'IND', 'countryName': 'India', 'stateCode': 'MH', 'state': 'Maharashtra', 'county': 'Mumbai Suburban', 'city': 'Mumbai', 'district': 'Powai', 'subdistrict': 'Iit Area', 'postalCode': '400076'}, 'position': {'lat': 19.13024, 'lng': 72.91658}, 'access': [{'lat': 19.13001, 'lng': 72.91641}], 'distance': 1218, 'categories': [{'id': '800-8200-0295', 'name': 'Training & Development', 'primary': True}], 'contacts': [{'phone': [{'value': '+912225767500'}]}]}, {'title': 'Iit Bombay Staff Quarters', 'id': 'here:pds:place:356te7ug-58c8b22c3c2e48f4a0427154d782145d', 'language': 'en', 'resultType': 'place', 'address': {'label': 'Iit Bombay Staff Quarters, YP Road, Iit Area, Powai, Mumbai 400076, India', 'countryCode': 'IND', 'countryName': 'India', 'stateCode': 'MH', 'state': 'Maharashtra', 'county': 'Mumbai Suburban', 'city': 'Mumbai', 'district': 'Powai', 'subdistrict': 'Iit Area', 'street': 'YP Road', 'postalCode': '400076'}, 'position': {'lat': 19.1319, 'lng': 72.91728}, 'access': [{'lat': 19.13203, 'lng': 72.91792}], 'distance': 1220, 'categories': [{'id': '900-9300-0221', 'name': 'Residential Area/Building', 'primary': True}, {'id': '800-8200-0000', 'name': 'Education Facility'}], 'contacts': [{'phone': [{'value': '+919971979450'}], 'www': [{'value': 'http://www.som.iitb.ac.in/joomla/index.php?option=com_content&task=view&id=246&Itemid=688', 'categories': [{'id': '800-8200-0000'}]}]}]}, {'title': 'K V School Road, Iit Area, Powai, Mumbai 400076, India', 'id': 'here:af:street:4GViYg4NrPMslZ7KTlSEPD', 'language': 'en', 'resultType': 'street', 'address': {'label': 'K V School Road, Iit Area, Powai, Mumbai 400076, India', 'countryCode': 'IND', 'countryName': 'India', 'stateCode': 'MH', 'state': 'Maharashtra', 'county': 'Mumbai Suburban', 'city': 'Mumbai', 'district': 'Powai', 'subdistrict': 'Iit Area', 'street': 'K V School Road', 'postalCode': '400076'}, 'position': {'lat': 19.12962, 'lng': 72.91652}, 'distance': 1244, 'mapView': {'west': 72.91541, 'south': 19.12837, 'east': 72.91769, 'north': 19.12964}}, {'title': 'Council of EU Chamber of Commerce', 'id': 'here:pds:place:356te7ug-97871900a42045e2a852cf80b9ee40e6', 'language': 'en', 'resultType': 'place', 'address': {'label': 'Council of EU Chamber of Commerce, Iit Area, Powai, Mumbai 400076, India', 'countryCode': 'IND', 'countryName': 'India', 'stateCode': 'MH', 'state': 'Maharashtra', 'county': 'Mumbai Suburban', 'city': 'Mumbai', 'district': 'Powai', 'subdistrict': 'Iit Area', 'postalCode': '400076'}, 'position': {'lat': 19.13217, 'lng': 72.91766}, 'access': [{'lat': 19.1322, 'lng': 72.91791}], 'distance': 1250, 'categories': [{'id': '800-8100-0171', 'name': 'Government Office', 'primary': True}], 'contacts': [{'phone': [{'value': '+912222854563'}]}]}, {'title': 'TRI Techno Solutions', 'id': 'here:pds:place:356te7ug-ecbe3009cd1548618bcda65451600024', 'language': 'en-GB', 'resultType': 'place', 'address': {'label': 'TRI Techno Solutions, Iit Area, Powai, Mumbai 400076, India', 'countryCode': 'IND', 'countryName': 'India', 'stateCode': 'MH', 'state': 'Maharashtra', 'county': 'Mumbai Suburban', 'city': 'Mumbai', 'district': 'Powai', 'subdistrict': 'Iit Area', 'postalCode': '400076'}, 'position': {'lat': 19.13198, 'lng': 72.91764}, 'access': [{'lat': 19.13203, 'lng': 72.91792}], 'distance': 1254, 'categories': [{'id': '700-7250-0136', 'name': 'Business Facility', 'primary': True}], 'contacts': [{'phone': [{'value': '+912225720700'}], 'www': [{'value': 'http://triindia.co.in'}]}]}, {'title': 'Department of Earth Sciences Iit Bombay', 'id': 'here:pds:place:356te7ug-9e7be77a0d924750a0179a78ca911d68', 'language': 'en', 'resultType': 'place', 'address': {'label': 'Department of Earth Sciences Iit Bombay, Iit Area, Powai, Mumbai 400076, India', 'countryCode': 'IND', 'countryName': 'India', 'stateCode': 'MH', 'state': 'Maharashtra', 'county': 'Mumbai Suburban', 'city': 'Mumbai', 'district': 'Powai', 'subdistrict': 'Iit Area', 'postalCode': '400076'}, 'position': {'lat': 19.13188, 'lng': 72.91791}, 'access': [{'lat': 19.13201, 'lng': 72.91794}], 'distance': 1284, 'categories': [{'id': '800-8200-0360', 'name': 'Coaching Institute', 'primary': True}, {'id': '800-8200-0000', 'name': 'Education Facility'}], 'contacts': [{'phone': [{'value': '+912225725596'}], 'www': [{'value': 'http://computermasti.com', 'categories': [{'id': '800-8200-0000'}]}]}]}, {'title': 'Iit Stores & Estate Office', 'id': 'here:pds:place:356te7ug-831221719674432bb90097c5e93c6154', 'language': 'en', 'resultType': 'place', 'address': {'label': 'Iit Stores & Estate Office, Iit Area, Powai, Mumbai 400076, India', 'countryCode': 'IND', 'countryName': 'India', 'stateCode': 'MH', 'state': 'Maharashtra', 'county': 'Mumbai Suburban', 'city': 'Mumbai', 'district': 'Powai', 'subdistrict': 'Iit Area', 'postalCode': '400076'}, 'position': {'lat': 19.13248, 'lng': 72.91834}, 'access': [{'lat': 19.13243, 'lng': 72.91788}], 'distance': 1312, 'categories': [{'id': '700-7250-0136', 'name': 'Business Facility', 'primary': True}, {'id': '800-8200-0295', 'name': 'Training & Development'}]}, {'title': 'Department of Humanities and Social Sciences Iit Bombay', 'id': 'here:pds:place:356te7ug-ccbee11febf04483a7e7db520975a393', 'language': 'en', 'resultType': 'place', 'address': {'label': 'Department of Humanities and Social Sciences Iit Bombay, Iit Area, Powai, Mumbai 400076, India', 'countryCode': 'IND', 'countryName': 'India', 'stateCode': 'MH', 'state': 'Maharashtra', 'county': 'Mumbai Suburban', 'city': 'Mumbai', 'district': 'Powai', 'subdistrict': 'Iit Area', 'postalCode': '400076'}, 'position': {'lat': 19.13138, 'lng': 72.91814}, 'access': [{'lat': 19.13139, 'lng': 72.91828}], 'distance': 1323, 'categories': [{'id': '800-8200-0000', 'name': 'Education Facility', 'primary': True}], 'openingHours': [{'text': ['Mon-Fri: 08:00 - 17:45'], 'isOpen': True, 'structured': [{'start': 'T080000', 'duration': 'PT09H45M', 'recurrence': 'FREQ:DAILY;BYDAY:MO,TU,WE,TH,FR'}]}]}, {'title': 'Team Shunya, Iit Bombay', 'id': 'here:pds:place:356te7ug-ca89cd95588f4195918d3420e182bf09', 'language': 'en', 'resultType': 'place', 'address': {'label': 'Team Shunya, Iit Bombay, Iit Area, Powai, Mumbai 400076, India', 'countryCode': 'IND', 'countryName': 'India', 'stateCode': 'MH', 'state': 'Maharashtra', 'county': 'Mumbai Suburban', 'city': 'Mumbai', 'district': 'Powai', 'subdistrict': 'Iit Area', 'postalCode': '400076'}, 'position': {'lat': 19.13138, 'lng': 72.91814}, 'access': [{'lat': 19.13139, 'lng': 72.91828}], 'distance': 1323, 'categories': [{'id': '700-7200-0269', 'name': 'Organizations and Societies', 'primary': True}], 'contacts': [{'phone': [{'value': '+919967485939'}], 'www': [{'value': 'http://www.teamshunya.in'}]}]}, {'title': 'Department of Aerospace Engineering Iit Bombay', 'id': 'here:pds:place:356te7ug-ab271a6d449648eebab9bee7f8809277', 'language': 'en', 'resultType': 'place', 'address': {'label': 'Department of Aerospace Engineering Iit Bombay, Iit Area, Powai, Mumbai 400076, India', 'countryCode': 'IND', 'countryName': 'India', 'stateCode': 'MH', 'state': 'Maharashtra', 'county': 'Mumbai Suburban', 'city': 'Mumbai', 'district': 'Powai', 'subdistrict': 'Iit Area', 'postalCode': '400076'}, 'position': {'lat': 19.13085, 'lng': 72.91799}, 'access': [{'lat': 19.13086, 'lng': 72.91842}], 'distance': 1328, 'categories': [{'id': '800-8200-0000', 'name': 'Education Facility', 'primary': True}, {'id': '700-7200-0256', 'name': 'Engineering and Scientific Services'}, {'id': '700-7200-0275', 'name': 'Repair and Maintenance Services'}], 'contacts': [{'phone': [{'value': '+912225767101', 'categories': [{'id': '800-8200-0000'}]}, {'value': '+912225767771'}], 'www': [{'value': 'http://www.aero.iitb.ac.in', 'categories': [{'id': '700-7200-0256'}]}]}], 'openingHours': [{'categories': [{'id': '800-8200-0000'}], 'text': ['Mon-Fri: 09:00 - 17:00'], 'isOpen': True, 'structured': [{'start': 'T090000', 'duration': 'PT08H00M', 'recurrence': 'FREQ:DAILY;BYDAY:MO,TU,WE,TH,FR'}]}]}, {'title': 'Biotech Department Iit Bombay', 'id': 'here:pds:place:356te7ug-09226a15a40a45a69fce3db3acf773de', 'language': 'en', 'resultType': 'place', 'address': {'label': 'Biotech Department Iit Bombay, Iit Area, Powai, Mumbai 400076, India', 'countryCode': 'IND', 'countryName': 'India', 'stateCode': 'MH', 'state': 'Maharashtra', 'county': 'Mumbai Suburban', 'city': 'Mumbai', 'district': 'Powai', 'subdistrict': 'Iit Area', 'postalCode': '400076'}, 'position': {'lat': 19.13096, 'lng': 72.91804}, 'access': [{'lat': 19.13121, 'lng': 72.91829}], 'distance': 1329, 'categories': [{'id': '800-8250-0000', 'name': 'School', 'primary': True}, {'id': '800-8200-0000', 'name': 'Education Facility'}]}, {'title': "Paid Prkg, Powai Plz, Ctr'l Ave, Opp. Pizza Hut, Hiranandani Grdns, Sainath Nagar, Powai, Mumbai.", 'id': 'here:pds:place:356te7ug-80eb557516d5383a8691174ea7b47dc2', 'language': 'en-GB', 'resultType': 'place', 'address': {'label': "Paid Prkg, Powai Plz, Ctr'l Ave, Opp. Pizza Hut, Hiranandani Grdns, Sainath Nagar, Powai, Mumbai., Iit Area, Powai, Mumbai 400076, India", 'countryCode': 'IND', 'countryName': 'India', 'stateCode': 'MH', 'state': 'Maharashtra', 'county': 'Mumbai Suburban', 'city': 'Mumbai', 'district': 'Powai', 'subdistrict': 'Iit Area', 'postalCode': '400076'}, 'position': {'lat': 19.1286, 'lng': 72.91688}, 'access': [{'lat': 19.1284, 'lng': 72.91696}], 'distance': 1335, 'categories': [{'id': '800-8500-0000', 'name': 'Parking', 'primary': True}]}, {'title': 'Theatrefest, Iit Bombay', 'id': 'here:pds:place:356te7ug-784db1e5ecbb4e0197eb826f011db310', 'language': 'en', 'resultType': 'place', 'address': {'label': 'Theatrefest, Iit Bombay, Iit Area, Powai, Mumbai 400076, India', 'countryCode': 'IND', 'countryName': 'India', 'stateCode': 'MH', 'state': 'Maharashtra', 'county': 'Mumbai Suburban', 'city': 'Mumbai', 'district': 'Powai', 'subdistrict': 'Iit Area', 'postalCode': '400076'}, 'position': {'lat': 19.13043, 'lng': 72.9181}, 'access': [{'lat': 19.13065, 'lng': 72.91842}], 'distance': 1356, 'categories': [{'id': '200-2200-0020', 'name': 'Performing Arts Center', 'primary': True}, {'id': '700-7200-0269', 'name': 'Organizations and Societies'}], 'contacts': [{'www': [{'value': 'http://gymkhana.iitb.ac.in'}]}]}, {'title': 'Aeronautical Engineering', 'id': 'here:pds:place:356te7ug-a3b9a1348e7d488e8941bf54c952328f', 'language': 'en', 'resultType': 'place', 'address': {'label': 'Aeronautical Engineering, Iit Area, Powai, Mumbai 400076, India', 'countryCode': 'IND', 'countryName': 'India', 'stateCode': 'MH', 'state': 'Maharashtra', 'county': 'Mumbai Suburban', 'city': 'Mumbai', 'district': 'Powai', 'subdistrict': 'Iit Area', 'postalCode': '400076'}, 'position': {'lat': 19.13126, 'lng': 72.91848}, 'access': [{'lat': 19.13126, 'lng': 72.91841}], 'distance': 1361, 'categories': [{'id': '700-7200-0275', 'name': 'Repair and Maintenance Services', 'primary': True}]}, {'title': 'YP Road, Iit Area, Powai, Mumbai 400076, India', 'id': 'here:af:street:wJzw27p4CDkIi9sDdzF7GD', 'language': 'en', 'resultType': 'street', 'address': {'label': 'YP Road, Iit Area, Powai, Mumbai 400076, India', 'countryCode': 'IND', 'countryName': 'India', 'stateCode': 'MH', 'state': 'Maharashtra', 'county': 'Mumbai Suburban', 'city': 'Mumbai', 'district': 'Powai', 'subdistrict': 'Iit Area', 'street': 'YP Road', 'postalCode': '400076'}, 'position': {'lat': 19.13199, 'lng': 72.91873}, 'distance': 1364, 'mapView': {'west': 72.9178, 'south': 19.1298, 'east': 72.91965, 'north': 19.13441}}, {'title': 'Department of Chemical Engineering Iit Bombay', 'id': 'here:pds:place:356te7ug-23515ebeeb8e4e8fabc98137326265a4', 'language': 'en', 'resultType': 'place', 'address': {'label': 'Department of Chemical Engineering Iit Bombay, Iit Area, Powai, Mumbai 400076, India', 'countryCode': 'IND', 'countryName': 'India', 'stateCode': 'MH', 'state': 'Maharashtra', 'county': 'Mumbai Suburban', 'city': 'Mumbai', 'district': 'Powai', 'subdistrict': 'Iit Area', 'postalCode': '400076'}, 'position': {'lat': 19.13052, 'lng': 72.91843}, 'access': [{'lat': 19.13065, 'lng': 72.91842}], 'distance': 1384, 'categories': [{'id': '800-8200-0000', 'name': 'Education Facility', 'primary': True}]}, {'title': 'Dese', 'id': 'here:pds:place:356te7ug-11694874fb4f47ceb5b3a63aeba01155', 'language': 'en', 'resultType': 'place', 'address': {'label': 'Dese, Iit Area, Powai, Mumbai 400076, India', 'countryCode': 'IND', 'countryName': 'India', 'stateCode': 'MH', 'state': 'Maharashtra', 'county': 'Mumbai Suburban', 'city': 'Mumbai', 'district': 'Powai', 'subdistrict': 'Iit Area', 'postalCode': '400076'}, 'position': {'lat': 19.13014, 'lng': 72.91852}, 'access': [{'lat': 19.13016, 'lng': 72.91887}], 'distance': 1409, 'categories': [{'id': '700-7250-0136', 'name': 'Business Facility', 'primary': True}]}, {'title': 'Iit Quarters', 'id': 'here:pds:place:356te7ug-92ec81dca075dbe2bc1c6d4253324b27', 'language': 'en', 'resultType': 'place', 'address': {'label': 'Iit Quarters, Iit Area, Powai, Mumbai 400076, India', 'countryCode': 'IND', 'countryName': 'India', 'stateCode': 'MH', 'state': 'Maharashtra', 'county': 'Mumbai Suburban', 'city': 'Mumbai', 'district': 'Powai', 'subdistrict': 'Iit Area', 'postalCode': '400076'}, 'position': {'lat': 19.13146, 'lng': 72.91915}, 'access': [{'lat': 19.13144, 'lng': 72.91891}], 'distance': 1422, 'categories': [{'id': '900-9300-0221', 'name': 'Residential Area/Building', 'primary': True}]}, {'title': 'Aashirwad Chawl Society', 'id': 'here:pds:place:356jx7ps-36bac489de4e0dd669624d0291a715ce', 'language': 'en-GB', 'resultType': 'place', 'address': {'label': 'Aashirwad Chawl Society, K V Wagh Marg, Iit Area-Jyotiba Phule NGR, Powai, Mumbai 400076, India', 'countryCode': 'IND', 'countryName': 'India', 'stateCode': 'MH', 'state': 'Maharashtra', 'county': 'Mumbai Suburban', 'city': 'Mumbai', 'district': 'Powai', 'subdistrict': 'Iit Area-Jyotiba Phule NGR', 'street': 'K V Wagh Marg', 'postalCode': '400076'}, 'position': {'lat': 19.13203, 'lng': 72.91954}, 'access': [{'lat': 19.13204, 'lng': 72.91971}], 'distance': 1446, 'categories': [{'id': '900-9300-0221', 'name': 'Residential Area/Building', 'primary': True}], 'references': [{'supplier': {'id': 'core'}, 'id': '1144597739'}]}, {'title': 'Bhagyshree Jwellras', 'id': 'here:pds:place:356te7ug-fb58e65b5c404a74ac7496dafd87e759', 'language': 'en-GB', 'resultType': 'place', 'address': {'label': 'Bhagyshree Jwellras, K V Wagh Marg, Iit Area-Jyotiba Phule NGR, Powai, Mumbai 400076, India', 'countryCode': 'IND', 'countryName': 'India', 'stateCode': 'MH', 'state': 'Maharashtra', 'county': 'Mumbai Suburban', 'city': 'Mumbai', 'district': 'Powai', 'subdistrict': 'Iit Area-Jyotiba Phule NGR', 'street': 'K V Wagh Marg', 'postalCode': '400076'}, 'position': {'lat': 19.13237, 'lng': 72.91963}, 'access': [{'lat': 19.13237, 'lng': 72.91969}], 'distance': 1447, 'categories': [{'id': '700-7250-0136', 'name': 'Business Facility', 'primary': True}]}, {'title': 'India Post Iit Powai Mumbai', 'id': 'here:pds:place:356te7ug-90baf0a285ad4be1a2e2bd6a0731e9d6', 'language': 'en', 'resultType': 'place', 'address': {'label': 'India Post Iit Powai Mumbai, Iit Area, Powai, Mumbai 400076, India', 'countryCode': 'IND', 'countryName': 'India', 'stateCode': 'MH', 'state': 'Maharashtra', 'county': 'Mumbai Suburban', 'city': 'Mumbai', 'district': 'Powai', 'subdistrict': 'Iit Area', 'postalCode': '400076'}, 'position': {'lat': 19.12912, 'lng': 72.91842}, 'access': [{'lat': 19.12935, 'lng': 72.91899}], 'distance': 1447, 'categories': [{'id': '700-7450-0114', 'name': 'Post Office', 'primary': True}], 'references': [{'supplier': {'id': 'core'}, 'id': '1224343886'}]}, {'title': 'R.M Tailors', 'id': 'here:pds:place:356te7ug-0fb59afb9fcf4b2ba0e220edcec81ff1', 'language': 'en-GB', 'resultType': 'place', 'address': {'label': 'R.M Tailors, K V Wagh Marg, Iit Area-Jyotiba Phule NGR, Powai, Mumbai 400076, India', 'countryCode': 'IND', 'countryName': 'India', 'stateCode': 'MH', 'state': 'Maharashtra', 'county': 'Mumbai Suburban', 'city': 'Mumbai', 'district': 'Powai', 'subdistrict': 'Iit Area-Jyotiba Phule NGR', 'street': 'K V Wagh Marg', 'postalCode': '400076'}, 'position': {'lat': 19.13228, 'lng': 72.91962}, 'access': [{'lat': 19.13228, 'lng': 72.91969}], 'distance': 1448, 'categories': [{'id': '700-7400-0149', 'name': 'Tailor & Alteration', 'primary': True}]}, {'title': 'Laxmi General Store', 'id': 'here:pds:place:356te7ug-0ac5a6fd7eea41488d2fe784c0a7aabc', 'language': 'en-GB', 'resultType': 'place', 'address': {'label': 'Laxmi General Store, K V Wagh Marg, Iit Area-Jyotiba Phule NGR, Powai, Mumbai 400076, India', 'countryCode': 'IND', 'countryName': 'India', 'stateCode': 'MH', 'state': 'Maharashtra', 'county': 'Mumbai Suburban', 'city': 'Mumbai', 'district': 'Powai', 'subdistrict': 'Iit Area-Jyotiba Phule NGR', 'street': 'K V Wagh Marg', 'postalCode': '400076'}, 'position': {'lat': 19.13198, 'lng': 72.91955}, 'access': [{'lat': 19.13199, 'lng': 72.91971}], 'distance': 1448, 'categories': [{'id': '700-7250-0136', 'name': 'Business Facility', 'primary': True}], 'references': [{'supplier': {'id': 'core'}, 'id': '1209539172'}]}, {'title': 'India Post Iit Powai Mumbai', 'id': 'here:pds:place:356te7ug-f8ebc701378f5d97cea17283dc6a37d0', 'language': 'en', 'resultType': 'place', 'address': {'label': 'India Post Iit Powai Mumbai, Iit Area, Powai, Mumbai 400076, India', 'countryCode': 'IND', 'countryName': 'India', 'stateCode': 'MH', 'state': 'Maharashtra', 'county': 'Mumbai Suburban', 'city': 'Mumbai', 'district': 'Powai', 'subdistrict': 'Iit Area', 'postalCode': '400076'}, 'position': {'lat': 19.12915, 'lng': 72.91846}, 'access': [{'lat': 19.12936, 'lng': 72.91899}], 'distance': 1449, 'categories': [{'id': '400-4200-0240', 'name': 'Couriers', 'primary': True}], 'openingHours': [{'text': ['Mon-Sun: 09:00 - 15:00'], 'isOpen': True, 'structured': [{'start': 'T090000', 'duration': 'PT06H00M', 'recurrence': 'FREQ:DAILY;BYDAY:MO,TU,WE,TH,FR,SA,SU'}]}]}, {'title': 'Surya Genral Store', 'id': 'here:pds:place:356te7ug-be18446bf75d4fb6bf3c0aa65f345263', 'language': 'en-GB', 'resultType': 'place', 'address': {'label': 'Surya Genral Store, K V Wagh Marg, Iit Area-Jyotiba Phule NGR, Powai, Mumbai 400076, India', 'countryCode': 'IND', 'countryName': 'India', 'stateCode': 'MH', 'state': 'Maharashtra', 'county': 'Mumbai Suburban', 'city': 'Mumbai', 'district': 'Powai', 'subdistrict': 'Iit Area-Jyotiba Phule NGR', 'street': 'K V Wagh Marg', 'postalCode': '400076'}, 'position': {'lat': 19.13224, 'lng': 72.91963}, 'access': [{'lat': 19.13224, 'lng': 72.9197}], 'distance': 1450, 'categories': [{'id': '700-7250-0136', 'name': 'Business Facility', 'primary': True}], 'references': [{'supplier': {'id': 'core'}, 'id': '1209542035'}]}, {'title': 'Umesh Chaeynis Konar', 'id': 'here:pds:place:356te7ug-5a9cc7a9405c419c9d0cca6c6cec1d0c', 'language': 'en-GB', 'resultType': 'place', 'address': {'label': 'Umesh Chaeynis Konar, K V Wagh Marg, Iit Area-Jyotiba Phule NGR, Powai, Mumbai 400076, India', 'countryCode': 'IND', 'countryName': 'India', 'stateCode': 'MH', 'state': 'Maharashtra', 'county': 'Mumbai Suburban', 'city': 'Mumbai', 'district': 'Powai', 'subdistrict': 'Iit Area-Jyotiba Phule NGR', 'street': 'K V Wagh Marg', 'postalCode': '400076'}, 'position': {'lat': 19.13207, 'lng': 72.91959}, 'access': [{'lat': 19.13208, 'lng': 72.91971}], 'distance': 1450, 'categories': [{'id': '100-1000-0009', 'name': 'Fast Food', 'primary': True}]}, {'title': 'Rajgrah Chawl', 'id': 'here:pds:place:356te7ug-9dc5f86844614409bb88d020da11b636', 'language': 'en-GB', 'resultType': 'place', 'address': {'label': 'Rajgrah Chawl, Iit Area-Jyotiba Phule NGR, Powai, Mumbai 400076, India', 'countryCode': 'IND', 'countryName': 'India', 'stateCode': 'MH', 'state': 'Maharashtra', 'county': 'Mumbai Suburban', 'city': 'Mumbai', 'district': 'Powai', 'subdistrict': 'Iit Area-Jyotiba Phule NGR', 'postalCode': '400076'}, 'position': {'lat': 19.13194, 'lng': 72.91957}, 'access': [{'lat': 19.13193, 'lng': 72.91948}], 'distance': 1451, 'categories': [{'id': '900-9300-0221', 'name': 'Residential Area/Building', 'primary': True}], 'references': [{'supplier': {'id': 'core'}, 'id': '1204573969'}]}, {'title': 'Ghansham Niwas', 'id': 'here:pds:place:356te7ug-36f02ddfde3e4a6f99c31d464296f76d', 'language': 'en-GB', 'resultType': 'place', 'address': {'label': 'Ghansham Niwas, Iit Area-Jyotiba Phule NGR, Powai, Mumbai 400076, India', 'countryCode': 'IND', 'countryName': 'India', 'stateCode': 'MH', 'state': 'Maharashtra', 'county': 'Mumbai Suburban', 'city': 'Mumbai', 'district': 'Powai', 'subdistrict': 'Iit Area-Jyotiba Phule NGR', 'postalCode': '400076'}, 'position': {'lat': 19.13175, 'lng': 72.91956}, 'access': [{'lat': 19.13174, 'lng': 72.9195}], 'distance': 1455, 'categories': [{'id': '900-9300-0221', 'name': 'Residential Area/Building', 'primary': True}]}, {'title': 'Mother And Child Health', 'id': 'here:pds:place:356te7ug-bd97d584f07e44ee95acd864351e78ee', 'language': 'en-GB', 'resultType': 'place', 'address': {'label': 'Mother And Child Health, K V Wagh Marg, Iit Area-Jyotiba Phule NGR, Powai, Mumbai 400076, India', 'countryCode': 'IND', 'countryName': 'India', 'stateCode': 'MH', 'state': 'Maharashtra', 'county': 'Mumbai Suburban', 'city': 'Mumbai', 'district': 'Powai', 'subdistrict': 'Iit Area-Jyotiba Phule NGR', 'street': 'K V Wagh Marg', 'postalCode': '400076'}, 'position': {'lat': 19.13173, 'lng': 72.91956}, 'access': [{'lat': 19.13174, 'lng': 72.91973}], 'distance': 1456, 'categories': [{'id': '700-7250-0136', 'name': 'Business Facility', 'primary': True}], 'references': [{'supplier': {'id': 'core'}, 'id': '1204565952'}]}, {'title': 'Amar Socitey', 'id': 'here:pds:place:356te7ug-98b4e2ab622740d095e18982bcc04779', 'language': 'en-GB', 'resultType': 'place', 'address': {'label': 'Amar Socitey, K V Wagh Marg, Iit Area-Jyotiba Phule NGR, Powai, Mumbai 400076, India', 'countryCode': 'IND', 'countryName': 'India', 'stateCode': 'MH', 'state': 'Maharashtra', 'county': 'Mumbai Suburban', 'city': 'Mumbai', 'district': 'Powai', 'subdistrict': 'Iit Area-Jyotiba Phule NGR', 'street': 'K V Wagh Marg', 'postalCode': '400076'}, 'position': {'lat': 19.13211, 'lng': 72.91968}, 'access': [{'lat': 19.13211, 'lng': 72.9197}], 'distance': 1458, 'categories': [{'id': '900-9200-0299', 'name': 'Collective Community', 'primary': True}]}, {'title': 'Aashirwad Chawl Society', 'id': 'here:pds:place:356te7ug-b4f099348c18434482157490513efa20', 'language': 'en-GB', 'resultType': 'place', 'address': {'label': 'Aashirwad Chawl Society, K V Wagh Marg, Iit Area-Jyotiba Phule NGR, Powai, Mumbai 400076, India', 'countryCode': 'IND', 'countryName': 'India', 'stateCode': 'MH', 'state': 'Maharashtra', 'county': 'Mumbai Suburban', 'city': 'Mumbai', 'district': 'Powai', 'subdistrict': 'Iit Area-Jyotiba Phule NGR', 'street': 'K V Wagh Marg', 'postalCode': '400076'}, 'position': {'lat': 19.13216, 'lng': 72.9197}, 'access': [{'lat': 19.13216, 'lng': 72.9197}], 'distance': 1459, 'categories': [{'id': '900-9200-0299', 'name': 'Collective Community', 'primary': True}]}, {'title': 'Sant Kabir Chawl Kamiti', 'id': 'here:pds:place:356te7ug-862200dfb4dc49509983e87743be611b', 'language': 'en-GB', 'resultType': 'place', 'address': {'label': 'Sant Kabir Chawl Kamiti, K V Wagh Marg, Iit Area-Jyotiba Phule NGR, Powai, Mumbai 400076, India', 'countryCode': 'IND', 'countryName': 'India', 'stateCode': 'MH', 'state': 'Maharashtra', 'county': 'Mumbai Suburban', 'city': 'Mumbai', 'district': 'Powai', 'subdistrict': 'Iit Area-Jyotiba Phule NGR', 'street': 'K V Wagh Marg', 'postalCode': '400076'}, 'position': {'lat': 19.13198, 'lng': 72.91966}, 'access': [{'lat': 19.13198, 'lng': 72.91971}], 'distance': 1459, 'categories': [{'id': '900-9200-0299', 'name': 'Collective Community', 'primary': True}]}, {'title': 'Avisha General Store', 'id': 'here:pds:place:356te7ug-78664a3458d142bb964f8ca7a48b4cf8', 'language': 'en-GB', 'resultType': 'place', 'address': {'label': 'Avisha General Store, Iit Area-Jyotiba Phule NGR, Powai, Mumbai 400076, India', 'countryCode': 'IND', 'countryName': 'India', 'stateCode': 'MH', 'state': 'Maharashtra', 'county': 'Mumbai Suburban', 'city': 'Mumbai', 'district': 'Powai', 'subdistrict': 'Iit Area-Jyotiba Phule NGR', 'postalCode': '400076'}, 'position': {'lat': 19.13176, 'lng': 72.91961}, 'access': [{'lat': 19.13175, 'lng': 72.9195}], 'distance': 1460, 'categories': [{'id': '700-7250-0136', 'name': 'Business Facility', 'primary': True}], 'references': [{'supplier': {'id': 'core'}, 'id': '1204560227'}]}, {'title': 'Chandrakat Tapkire Sanskar Shikshan Kendra', 'id': 'here:pds:place:356te7ug-80419a5b817a4b90b84bf993401a876f', 'language': 'en-GB', 'resultType': 'place', 'address': {'label': 'Chandrakat Tapkire Sanskar Shikshan Kendra, K V Wagh Marg, Iit Area-Jyotiba Phule NGR, Powai, Mumbai 400076, India', 'countryCode': 'IND', 'countryName': 'India', 'stateCode': 'MH', 'state': 'Maharashtra', 'county': 'Mumbai Suburban', 'city': 'Mumbai', 'district': 'Powai', 'subdistrict': 'Iit Area-Jyotiba Phule NGR', 'street': 'K V Wagh Marg', 'postalCode': '400076'}, 'position': {'lat': 19.13173, 'lng': 72.91962}, 'access': [{'lat': 19.13174, 'lng': 72.91973}], 'distance': 1462, 'categories': [{'id': '800-8200-0000', 'name': 'Education Facility', 'primary': True}]}, {'title': 'Matoshree Chawl', 'id': 'here:pds:place:356jx7ps-9c81fd571e0401b82d5143cce78c8a86', 'language': 'en-GB', 'resultType': 'place', 'address': {'label': 'Matoshree Chawl, K V Wagh Marg, Iit Area-Jyotiba Phule NGR, Powai, Mumbai 400076, India', 'countryCode': 'IND', 'countryName': 'India', 'stateCode': 'MH', 'state': 'Maharashtra', 'county': 'Mumbai Suburban', 'city': 'Mumbai', 'district': 'Powai', 'subdistrict': 'Iit Area-Jyotiba Phule NGR', 'street': 'K V Wagh Marg', 'postalCode': '400076'}, 'position': {'lat': 19.13158, 'lng': 72.91958}, 'access': [{'lat': 19.13159, 'lng': 72.91974}], 'distance': 1462, 'categories': [{'id': '900-9300-0221', 'name': 'Residential Area/Building', 'primary': True}], 'references': [{'supplier': {'id': 'core'}, 'id': '1144597737'}]}, {'title': 'Axis Bank ATM', 'id': 'here:pds:place:356te7ug-19ae897429dd147e1304fa0379976f19', 'language': 'en', 'resultType': 'place', 'address': {'label': 'Axis Bank ATM, Iit Area, Powai, Mumbai 400076, India', 'countryCode': 'IND', 'countryName': 'India', 'stateCode': 'MH', 'state': 'Maharashtra', 'county': 'Mumbai Suburban', 'city': 'Mumbai', 'district': 'Powai', 'subdistrict': 'Iit Area', 'postalCode': '400076'}, 'position': {'lat': 19.13112, 'lng': 72.91944}, 'access': [{'lat': 19.13113, 'lng': 72.91958}], 'distance': 1462, 'categories': [{'id': '700-7010-0108', 'name': 'ATM', 'primary': True}], 'chains': [{'id': '2050', 'name': 'Axis Bank'}], 'contacts': [{'phone': [{'value': '+9118605005555'}], 'www': [{'value': 'https://branch.axisbank.com/axis-bank-atm-atm-penukonda-anantapur-87894/Home'}]}], 'openingHours': [{'text': ['Mon-Sun: 00:00 - 24:00'], 'isOpen': True, 'structured': [{'start': 'T000000', 'duration': 'PT24H00M', 'recurrence': 'FREQ:DAILY;BYDAY:MO,TU,WE,TH,FR,SA,SU'}]}]}, {'title': 'Thathstu Chawl Kamiti', 'id': 'here:pds:place:356te7ug-03213d1d24424011a52572903ba5150e', 'language': 'en-GB', 'resultType': 'place', 'address': {'label': 'Thathstu Chawl Kamiti, K V Wagh Marg, Iit Area-Jyotiba Phule NGR, Powai, Mumbai 400076, India', 'countryCode': 'IND', 'countryName': 'India', 'stateCode': 'MH', 'state': 'Maharashtra', 'county': 'Mumbai Suburban', 'city': 'Mumbai', 'district': 'Powai', 'subdistrict': 'Iit Area-Jyotiba Phule NGR', 'street': 'K V Wagh Marg', 'postalCode': '400076'}, 'position': {'lat': 19.13129, 'lng': 72.91966}, 'access': [{'lat': 19.1313, 'lng': 72.91976}], 'distance': 1479, 'categories': [{'id': '900-9200-0299', 'name': 'Collective Community', 'primary': True}]}, {'title': 'Rajratna Chawl Committee', 'id': 'here:pds:place:356jx7ps-21c580e300b4036d670be0eb9934b97e', 'language': 'en-GB', 'resultType': 'place', 'address': {'label': 'Rajratna Chawl Committee, K V Wagh Marg, Iit Area-Jyotiba Phule NGR, Powai, Mumbai 400076, India', 'countryCode': 'IND', 'countryName': 'India', 'stateCode': 'MH', 'state': 'Maharashtra', 'county': 'Mumbai Suburban', 'city': 'Mumbai', 'district': 'Powai', 'subdistrict': 'Iit Area-Jyotiba Phule NGR', 'street': 'K V Wagh Marg', 'postalCode': '400076'}, 'position': {'lat': 19.13108, 'lng': 72.91962}, 'access': [{'lat': 19.13109, 'lng': 72.91978}], 'distance': 1482, 'categories': [{'id': '900-9300-0221', 'name': 'Residential Area/Building', 'primary': True}], 'references': [{'supplier': {'id': 'core'}, 'id': '1144597738'}]}, {'title': 'Kendriya Vidyalaya', 'id': 'here:pds:place:356httek-f8e62e675f9805e42baa0d070718a785', 'language': 'en-GB', 'resultType': 'place', 'address': {'label': 'Kendriya Vidyalaya, Iit Area, Powai, Mumbai 400076, India', 'countryCode': 'IND', 'countryName': 'India', 'stateCode': 'MH', 'state': 'Maharashtra', 'county': 'Mumbai Suburban', 'city': 'Mumbai', 'district': 'Powai', 'subdistrict': 'Iit Area', 'postalCode': '400076'}, 'position': {'lat': 19.12911, 'lng': 72.9188}, 'access': [{'lat': 19.12921, 'lng': 72.91905}], 'distance': 1483, 'categories': [{'id': '800-8250-0000', 'name': 'School', 'primary': True}], 'chains': [{'id': '32688', 'name': 'Kendriya Vidyalaya'}], 'references': [{'supplier': {'id': 'core'}, 'id': '1211862291'}], 'contacts': [{'phone': [{'value': '+912225725061'}]}]}, {'title': 'Ausa Building Material', 'id': 'here:pds:place:356te7ug-2b8a7bc9b43a4c3ca32646129deba855', 'language': 'en-GB', 'resultType': 'place', 'address': {'label': 'Ausa Building Material, Iit Area-Jyotiba Phule NGR, Powai, Mumbai 400076, India', 'countryCode': 'IND', 'countryName': 'India', 'stateCode': 'MH', 'state': 'Maharashtra', 'county': 'Mumbai Suburban', 'city': 'Mumbai', 'district': 'Powai', 'subdistrict': 'Iit Area-Jyotiba Phule NGR', 'postalCode': '400076'}, 'position': {'lat': 19.13111, 'lng': 72.91965}, 'access': [{'lat': 19.1311, 'lng': 72.91958}], 'distance': 1484, 'categories': [{'id': '600-6600-0077', 'name': 'Home Improvement/Hardware Store', 'primary': True}, {'id': '100-1100-0000', 'name': 'Coffee/Tea'}], 'references': [{'supplier': {'id': 'core'}, 'id': '1204553009'}]}, {'title': 'Canara Bank', 'id': 'here:pds:place:356te7ug-fd3cab7bdf469aeff664dc3e2ca247e1', 'language': 'en', 'resultType': 'place', 'address': {'label': 'Canara Bank, Iit Area, Powai, Mumbai 400076, India', 'countryCode': 'IND', 'countryName': 'India', 'stateCode': 'MH', 'state': 'Maharashtra', 'county': 'Mumbai Suburban', 'city': 'Mumbai', 'district': 'Powai', 'subdistrict': 'Iit Area', 'postalCode': '400076'}, 'position': {'lat': 19.12924, 'lng': 72.91889}, 'access': [{'lat': 19.12928, 'lng': 72.91902}], 'distance': 1485, 'categories': [{'id': '700-7010-0108', 'name': 'ATM', 'primary': True}], 'chains': [{'id': '2501', 'name': 'Canara Bank'}], 'references': [{'supplier': {'id': 'core'}, 'id': '1225334551'}]}, {'title': 'Iit Campus School', 'id': 'here:pds:place:356te7ug-ca507a33000a4d60a04afef74934282f', 'language': 'en', 'resultType': 'place', 'address': {'label': 'Iit Campus School, Iit Area, Powai, Mumbai 400076, India', 'countryCode': 'IND', 'countryName': 'India', 'stateCode': 'MH', 'state': 'Maharashtra', 'county': 'Mumbai Suburban', 'city': 'Mumbai', 'district': 'Powai', 'subdistrict': 'Iit Area', 'postalCode': '400076'}, 'position': {'lat': 19.1277, 'lng': 72.91803}, 'access': [{'lat': 19.12743, 'lng': 72.91812}], 'distance': 1491, 'categories': [{'id': '800-8200-0000', 'name': 'Education Facility', 'primary': True}, {'id': '800-8250-0000', 'name': 'School'}], 'contacts': [{'phone': [{'value': '+912225764098'}, {'value': '+912225768990'}, {'value': '+912225768992'}], 'www': [{'value': 'http://www.iitcampusschoolmumbai.in/'}]}]}, {'title': 'Azeem General Store', 'id': 'here:pds:place:356te7ug-f8ccad15d9b44e2aa080f86f564e5a1d', 'language': 'en-GB', 'resultType': 'place', 'address': {'label': 'Azeem General Store, K V Wagh Marg, Iit Area-Jyotiba Phule NGR, Powai, Mumbai 400076, India', 'countryCode': 'IND', 'countryName': 'India', 'stateCode': 'MH', 'state': 'Maharashtra', 'county': 'Mumbai Suburban', 'city': 'Mumbai', 'district': 'Powai', 'subdistrict': 'Iit Area-Jyotiba Phule NGR', 'street': 'K V Wagh Marg', 'postalCode': '400076'}, 'position': {'lat': 19.13103, 'lng': 72.91973}, 'access': [{'lat': 19.13103, 'lng': 72.91978}], 'distance': 1494, 'categories': [{'id': '700-7250-0136', 'name': 'Business Facility', 'primary': True}], 'references': [{'supplier': {'id': 'core'}, 'id': '1209542907'}]}, {'title': 'Thane Photo Studio', 'id': 'here:pds:place:356te7ug-d072e3dee5fb4c3d9bdb98068ea1fd68', 'language': 'en-GB', 'resultType': 'place', 'address': {'label': 'Thane Photo Studio, Iit Area-Jyotiba Phule NGR, Powai, Mumbai 400076, India', 'countryCode': 'IND', 'countryName': 'India', 'stateCode': 'MH', 'state': 'Maharashtra', 'county': 'Mumbai Suburban', 'city': 'Mumbai', 'district': 'Powai', 'subdistrict': 'Iit Area-Jyotiba Phule NGR', 'postalCode': '400076'}, 'position': {'lat': 19.13078, 'lng': 72.91965}, 'access': [{'lat': 19.13078, 'lng': 72.91962}], 'distance': 1495, 'categories': [{'id': '700-7400-0144', 'name': 'Photography', 'primary': True}]}, {'title': 'Shri Jai Bhawani Brikas Saplyasr', 'id': 'here:pds:place:356te7ug-6a7c1565af2b4aaf83695bdbcd0d0fbb', 'language': 'en-GB', 'resultType': 'place', 'address': {'label': 'Shri Jai Bhawani Brikas Saplyasr, K V Wagh Marg, Iit Area-Jyotiba Phule NGR, Powai, Mumbai 400076, India', 'countryCode': 'IND', 'countryName': 'India', 'stateCode': 'MH', 'state': 'Maharashtra', 'county': 'Mumbai Suburban', 'city': 'Mumbai', 'district': 'Powai', 'subdistrict': 'Iit Area-Jyotiba Phule NGR', 'street': 'K V Wagh Marg', 'postalCode': '400076'}, 'position': {'lat': 19.13104, 'lng': 72.91974}, 'access': [{'lat': 19.13104, 'lng': 72.91978}], 'distance': 1495, 'categories': [{'id': '700-7250-0136', 'name': 'Business Facility', 'primary': True}]}, {'title': 'Swatantra Mahiticha Aadhikar', 'id': 'here:pds:place:356te7ug-2a319b7a01e44300910411bfa20c2891', 'language': 'en-GB', 'resultType': 'place', 'address': {'label': 'Swatantra Mahiticha Aadhikar, K V Wagh Marg, Iit Area-Jyotiba Phule NGR, Powai, Mumbai 400078, India', 'countryCode': 'IND', 'countryName': 'India', 'stateCode': 'MH', 'state': 'Maharashtra', 'county': 'Mumbai Suburban', 'city': 'Mumbai', 'district': 'Powai', 'subdistrict': 'Iit Area-Jyotiba Phule NGR', 'street': 'K V Wagh Marg', 'postalCode': '400078'}, 'position': {'lat': 19.13102, 'lng': 72.91982}, 'access': [{'lat': 19.13102, 'lng': 72.91978}], 'distance': 1504, 'categories': [{'id': '700-7250-0136', 'name': 'Business Facility', 'primary': True}]}, {'title': 'Iyer & Associates', 'id': 'here:pds:place:356te7ug-5c8504b69453412aa20393d0a7e4eddc', 'language': 'en-GB', 'resultType': 'place', 'address': {'label': 'Iyer & Associates, Iit Area-Jyotiba Phule NGR, Powai, Mumbai 400076, India', 'countryCode': 'IND', 'countryName': 'India', 'stateCode': 'MH', 'state': 'Maharashtra', 'county': 'Mumbai Suburban', 'city': 'Mumbai', 'district': 'Powai', 'subdistrict': 'Iit Area-Jyotiba Phule NGR', 'postalCode': '400076'}, 'position': {'lat': 19.13031, 'lng': 72.91969}, 'access': [{'lat': 19.13031, 'lng': 72.91964}], 'distance': 1516, 'categories': [{'id': '700-7250-0136', 'name': 'Business Facility', 'primary': True}]}, {'title': 'KG School-Iit Bombay', 'id': 'here:pds:place:356te7ug-57174b074248462bb4045c9960d9cbb5', 'language': 'en', 'resultType': 'place', 'address': {'label': 'KG School-Iit Bombay, Iit Area, Powai, Mumbai 400076, India', 'countryCode': 'IND', 'countryName': 'India', 'stateCode': 'MH', 'state': 'Maharashtra', 'county': 'Mumbai Suburban', 'city': 'Mumbai', 'district': 'Powai', 'subdistrict': 'Iit Area', 'postalCode': '400076'}, 'position': {'lat': 19.12767, 'lng': 72.9183}, 'access': [{'lat': 19.12756, 'lng': 72.91838}], 'distance': 1516, 'categories': [{'id': '800-8250-0000', 'name': 'School', 'primary': True}, {'id': '800-8200-0000', 'name': 'Education Facility'}]}, {'title': 'Pratap Medical Store', 'id': 'here:pds:place:356te7ug-cbcc66e88f9c04242cf729411e421565', 'language': 'en', 'resultType': 'place', 'address': {'label': 'Pratap Medical Store, Iit Area, Powai, Mumbai 400076, India', 'countryCode': 'IND', 'countryName': 'India', 'stateCode': 'MH', 'state': 'Maharashtra', 'county': 'Mumbai Suburban', 'city': 'Mumbai', 'district': 'Powai', 'subdistrict': 'Iit Area', 'postalCode': '400076'}, 'position': {'lat': 19.12913, 'lng': 72.91921}, 'access': [{'lat': 19.12912, 'lng': 72.91908}], 'distance': 1521, 'categories': [{'id': '600-6400-0070', 'name': 'Pharmacy', 'primary': True}], 'contacts': [{'phone': [{'value': '+912225720294'}]}]}, {'title': 'Sahogini Press', 'id': 'here:pds:place:356te7ug-49ec3e7e4a9e42f18234072ff31280d2', 'language': 'en-GB', 'resultType': 'place', 'address': {'label': 'Sahogini Press, Iit Area-Jyotiba Phule NGR, Powai, Mumbai 400076, India', 'countryCode': 'IND', 'countryName': 'India', 'stateCode': 'MH', 'state': 'Maharashtra', 'county': 'Mumbai Suburban', 'city': 'Mumbai', 'district': 'Powai', 'subdistrict': 'Iit Area-Jyotiba Phule NGR', 'postalCode': '400076'}, 'position': {'lat': 19.12991, 'lng': 72.91971}, 'access': [{'lat': 19.12991, 'lng': 72.91966}], 'distance': 1534, 'categories': [{'id': '700-7250-0136', 'name': 'Business Facility', 'primary': True}], 'references': [{'supplier': {'id': 'core'}, 'id': '1204559956'}]}, {'title': 'Sawariya Dairy', 'id': 'here:pds:place:356te7ug-eb9c8a28e683470f9379628d8e2bcb56', 'language': 'en-GB', 'resultType': 'place', 'address': {'label': 'Sawariya Dairy, Iit Area-Jyotiba Phule NGR, Powai, Mumbai 400076, India', 'countryCode': 'IND', 'countryName': 'India', 'stateCode': 'MH', 'state': 'Maharashtra', 'county': 'Mumbai Suburban', 'city': 'Mumbai', 'district': 'Powai', 'subdistrict': 'Iit Area-Jyotiba Phule NGR', 'postalCode': '400076'}, 'position': {'lat': 19.12986, 'lng': 72.9197}, 'access': [{'lat': 19.12986, 'lng': 72.91966}], 'distance': 1535, 'categories': [{'id': '100-1000-0004', 'name': 'Food Market/Stall', 'primary': True}]}, {'title': 'Data Packers and Movers Limited', 'id': 'here:pds:place:356te7ug-3e10fcbb8fbf4718abfb0f7bb2b533f0', 'language': 'en', 'resultType': 'place', 'address': {'label': 'Data Packers and Movers Limited, Iit Area, Powai, Mumbai 400076, India', 'countryCode': 'IND', 'countryName': 'India', 'stateCode': 'MH', 'state': 'Maharashtra', 'county': 'Mumbai Suburban', 'city': 'Mumbai', 'district': 'Powai', 'subdistrict': 'Iit Area', 'postalCode': '400076'}, 'position': {'lat': 19.12895, 'lng': 72.9193}, 'access': [{'lat': 19.12891, 'lng': 72.91917}], 'distance': 1538, 'categories': [{'id': '700-7400-0143', 'name': 'Movers', 'primary': True}], 'contacts': [{'phone': [{'value': '+912225787933'}, {'value': '+919833798471'}], 'www': [{'value': 'http://www.datapackers.com'}, {'value': 'http://www.tandipackersandlogistic.com'}]}]}, {'title': 'Kiran Fabrication', 'id': 'here:pds:place:356te7ug-e0bec39fdc8c4ac5b95a83de1c7c5bcc', 'language': 'en-GB', 'resultType': 'place', 'address': {'label': 'Kiran Fabrication, K V Wagh Marg, Iit Area-Jyotiba Phule NGR, Powai, Mumbai 400076, India', 'countryCode': 'IND', 'countryName': 'India', 'stateCode': 'MH', 'state': 'Maharashtra', 'county': 'Mumbai Suburban', 'city': 'Mumbai', 'district': 'Powai', 'subdistrict': 'Iit Area-Jyotiba Phule NGR', 'street': 'K V Wagh Marg', 'postalCode': '400076'}, 'position': {'lat': 19.13016, 'lng': 72.91987}, 'access': [{'lat': 19.13016, 'lng': 72.91986}], 'distance': 1540, 'categories': [{'id': '700-7250-0136', 'name': 'Business Facility', 'primary': True}], 'references': [{'supplier': {'id': 'core'}, 'id': '1204560358'}]}, {'title': 'Maharashtra Grain Store', 'id': 'here:pds:place:356te7ug-4bbb98279f214e459e989cdea8861e4e', 'language': 'en', 'resultType': 'place', 'address': {'label': 'Maharashtra Grain Store, Service Road, Iit Area-Jyotiba Phule NGR, Powai, Mumbai 400076, India', 'countryCode': 'IND', 'countryName': 'India', 'stateCode': 'MH', 'state': 'Maharashtra', 'county': 'Mumbai Suburban', 'city': 'Mumbai', 'district': 'Powai', 'subdistrict': 'Iit Area-Jyotiba Phule NGR', 'street': 'Service Road', 'postalCode': '400076'}, 'position': {'lat': 19.12889, 'lng': 72.91937}, 'access': [{'lat': 19.12868, 'lng': 72.91955}], 'distance': 1548, 'categories': [{'id': '600-6300-0066', 'name': 'Grocery', 'primary': True}]}, {'title': 'Aadhar Daynostick Center', 'id': 'here:pds:place:356te7ug-fb653064ab874eaa969416d127ef7264', 'language': 'en-GB', 'resultType': 'place', 'address': {'label': 'Aadhar Daynostick Center, K V Wagh Marg, Iit Area-Jyotiba Phule NGR, Powai, Mumbai 400076, India', 'countryCode': 'IND', 'countryName': 'India', 'stateCode': 'MH', 'state': 'Maharashtra', 'county': 'Mumbai Suburban', 'city': 'Mumbai', 'district': 'Powai', 'subdistrict': 'Iit Area-Jyotiba Phule NGR', 'street': 'K V Wagh Marg', 'postalCode': '400076'}, 'position': {'lat': 19.12991, 'lng': 72.91989}, 'access': [{'lat': 19.12991, 'lng': 72.91988}], 'distance': 1552, 'categories': [{'id': '800-8000-0158', 'name': 'Medical Services/Clinics', 'primary': True}]}, {'title': 'TRKK Engineers', 'id': 'here:pds:place:356jx7ps-ccad2c61923f00ada78d6f40191ce2e8', 'language': 'en-GB', 'resultType': 'place', 'address': {'label': 'TRKK Engineers, K V Wagh Marg, Iit Area-Jyotiba Phule NGR, Powai, Mumbai 400076, India', 'countryCode': 'IND', 'countryName': 'India', 'stateCode': 'MH', 'state': 'Maharashtra', 'county': 'Mumbai Suburban', 'city': 'Mumbai', 'district': 'Powai', 'subdistrict': 'Iit Area-Jyotiba Phule NGR', 'street': 'K V Wagh Marg', 'postalCode': '400076'}, 'position': {'lat': 19.1296, 'lng': 72.91977}, 'access': [{'lat': 19.12961, 'lng': 72.91991}], 'distance': 1553, 'categories': [{'id': '700-7400-0365', 'name': 'Electrical', 'primary': True}], 'references': [{'supplier': {'id': 'core'}, 'id': '1144648094'}], 'contacts': [{'mobile': [{'value': '+917208825161'}, {'value': '+919892754421'}]}]}, {'title': 'Central School', 'id': 'here:pds:place:356jx7ps-e8a036868fa70d419fbfc51e1b8c751b', 'language': 'en-GB', 'resultType': 'place', 'address': {'label': 'Central School, Iit Area, Powai, Mumbai 400076, India', 'countryCode': 'IND', 'countryName': 'India', 'stateCode': 'MH', 'state': 'Maharashtra', 'county': 'Mumbai Suburban', 'city': 'Mumbai', 'district': 'Powai', 'subdistrict': 'Iit Area', 'postalCode': '400076'}, 'position': {'lat': 19.12881, 'lng': 72.91941}, 'access': [{'lat': 19.12873, 'lng': 72.91928}], 'distance': 1555, 'categories': [{'id': '800-8250-0000', 'name': 'School', 'primary': True}], 'references': [{'supplier': {'id': 'core'}, 'id': '1143923639'}], 'contacts': [{'phone': [{'value': '+912225767771'}]}]}, {'title': 'Sidhaling Store', 'id': 'here:pds:place:356jx7ps-9e7f7c9a39a00bcea2f94cf5b889f66c', 'language': 'en-GB', 'resultType': 'place', 'address': {'label': 'Sidhaling Store, K V Wagh Marg, Iit Area-Jyotiba Phule NGR, Powai, Mumbai 400076, India', 'countryCode': 'IND', 'countryName': 'India', 'stateCode': 'MH', 'state': 'Maharashtra', 'county': 'Mumbai Suburban', 'city': 'Mumbai', 'district': 'Powai', 'subdistrict': 'Iit Area-Jyotiba Phule NGR', 'street': 'K V Wagh Marg', 'postalCode': '400076'}, 'position': {'lat': 19.12955, 'lng': 72.91978}, 'access': [{'lat': 19.12956, 'lng': 72.91992}], 'distance': 1556, 'categories': [{'id': '600-6300-0064', 'name': 'Food/Beverage Specialty Store', 'primary': True}], 'references': [{'supplier': {'id': 'core'}, 'id': '1144289613'}]}, {'title': 'Kendriya Vidyalaya Sangathan', 'id': 'here:pds:place:356te7ug-20272b46fab05bd4cd18e28131036dcc', 'language': 'en', 'resultType': 'place', 'address': {'label': 'Kendriya Vidyalaya Sangathan, Adi Shankaracharya Marg, Iit Area, Powai, Mumbai 400076, India', 'countryCode': 'IND', 'countryName': 'India', 'stateCode': 'MH', 'state': 'Maharashtra', 'county': 'Mumbai Suburban', 'city': 'Mumbai', 'district': 'Powai', 'subdistrict': 'Iit Area', 'street': 'Adi Shankaracharya Marg', 'postalCode': '400076'}, 'position': {'lat': 19.128, 'lng': 72.91896}, 'access': [{'lat': 19.12793, 'lng': 72.91908}], 'distance': 1556, 'categories': [{'id': '700-7250-0136', 'name': 'Business Facility', 'primary': True}]}, {'title': 'Trishala Pranali Ladies Cosmetic', 'id': 'here:pds:place:356te7ug-4d5e856ae2bc620e5dc21bb3e3833397', 'language': 'en', 'resultType': 'place', 'address': {'label': 'Trishala Pranali Ladies Cosmetic, K V Wagh Marg, Iit Area-Jyotiba Phule NGR, Powai, Mumbai 400076, India', 'countryCode': 'IND', 'countryName': 'India', 'stateCode': 'MH', 'state': 'Maharashtra', 'county': 'Mumbai Suburban', 'city': 'Mumbai', 'district': 'Powai', 'subdistrict': 'Iit Area-Jyotiba Phule NGR', 'street': 'K V Wagh Marg', 'postalCode': '400076'}, 'position': {'lat': 19.12972, 'lng': 72.91986}, 'access': [{'lat': 19.12972, 'lng': 72.9199}], 'distance': 1557, 'categories': [{'id': '600-6950-0000', 'name': 'Hair & Beauty', 'primary': True}]}, {'title': 'Indian Institute of Technology Bombay-Point Gate 1', 'id': 'here:pds:place:356jx7ps-b0662e94f0a10caedd19527b40de7e5d', 'language': 'en-GB', 'resultType': 'place', 'address': {'label': 'Indian Institute of Technology Bombay-Point Gate 1, Service Road, Iit Area, Powai, Mumbai 400076, India', 'countryCode': 'IND', 'countryName': 'India', 'stateCode': 'MH', 'state': 'Maharashtra', 'county': 'Mumbai Suburban', 'city': 'Mumbai', 'district': 'Powai', 'subdistrict': 'Iit Area', 'street': 'Service Road', 'postalCode': '400076'}, 'position': {'lat': 19.12852, 'lng': 72.91927}, 'access': [{'lat': 19.12844, 'lng': 72.91939}], 'distance': 1557, 'categories': [{'id': '800-8200-0173', 'name': 'Higher Education', 'primary': True}], 'references': [{'supplier': {'id': 'core'}, 'id': '1108577076'}]}, {'title': 'Niraml Xerox Center', 'id': 'here:pds:place:356te7ug-3bb53f76f3be4f1c859e83944182f278', 'language': 'en-GB', 'resultType': 'place', 'address': {'label': 'Niraml Xerox Center, K V Wagh Marg, Iit Area-Jyotiba Phule NGR, Powai, Mumbai 400076, India', 'countryCode': 'IND', 'countryName': 'India', 'stateCode': 'MH', 'state': 'Maharashtra', 'county': 'Mumbai Suburban', 'city': 'Mumbai', 'district': 'Powai', 'subdistrict': 'Iit Area-Jyotiba Phule NGR', 'street': 'K V Wagh Marg', 'postalCode': '400076'}, 'position': {'lat': 19.12974, 'lng': 72.91989}, 'access': [{'lat': 19.12974, 'lng': 72.9199}], 'distance': 1559, 'categories': [{'id': '700-7250-0136', 'name': 'Business Facility', 'primary': True}]}, {'title': 'Renukadevi Transport', 'id': 'here:pds:place:356te7ug-398f857aacf34f889afc6172774aaad2', 'language': 'en-GB', 'resultType': 'place', 'address': {'label': 'Renukadevi Transport, K V Wagh Marg, Iit Area-Jyotiba Phule NGR, Powai, Mumbai 400076, India', 'countryCode': 'IND', 'countryName': 'India', 'stateCode': 'MH', 'state': 'Maharashtra', 'county': 'Mumbai Suburban', 'city': 'Mumbai', 'district': 'Powai', 'subdistrict': 'Iit Area-Jyotiba Phule NGR', 'street': 'K V Wagh Marg', 'postalCode': '400076'}, 'position': {'lat': 19.12977, 'lng': 72.91991}, 'access': [{'lat': 19.12977, 'lng': 72.9199}], 'distance': 1559, 'categories': [{'id': '700-7250-0136', 'name': 'Business Facility', 'primary': True}]}, {'title': 'Bhooj Adda', 'id': 'here:pds:place:356te7ug-36b124b57b34fc226289fc31cd553413', 'language': 'en', 'resultType': 'place', 'address': {'label': 'Bhooj Adda, Iit Area, Powai, Mumbai 400076, India', 'countryCode': 'IND', 'countryName': 'India', 'stateCode': 'MH', 'state': 'Maharashtra', 'county': 'Mumbai Suburban', 'city': 'Mumbai', 'district': 'Powai', 'subdistrict': 'Iit Area', 'postalCode': '400076'}, 'position': {'lat': 19.12902, 'lng': 72.91957}, 'access': [{'lat': 19.12922, 'lng': 72.91969}], 'distance': 1560, 'categories': [{'id': '100-1000-0000', 'name': 'Restaurant', 'primary': True}], 'references': [{'supplier': {'id': 'tripadvisor'}, 'id': '23353886'}], 'foodTypes': [{'id': '202-000', 'name': 'Indian', 'primary': True}, {'id': '500-000', 'name': 'African'}, {'id': '503-000', 'name': 'Ethiopian'}], 'contacts': [{'phone': [{'value': '+917029452867'}], 'www': [{'value': 'https://www.facebook.com/bhooj.adda'}]}]}, {'title': 'Holy Trinity', 'id': 'here:pds:place:356te7ug-ffcb2d56eba54f7bae2cf7ed595eef17', 'language': 'en', 'resultType': 'place', 'address': {'label': 'Holy Trinity, New Clny, Kanjurmarg West, Mumbai 400078, India', 'countryCode': 'IND', 'countryName': 'India', 'stateCode': 'MH', 'state': 'Maharashtra', 'county': 'Mumbai Suburban', 'city': 'Mumbai', 'district': 'Kanjurmarg West', 'subdistrict': 'New Clny', 'postalCode': '400078'}, 'position': {'lat': 19.13047, 'lng': 72.92021}, 'access': [{'lat': 19.13032, 'lng': 72.9202}], 'distance': 1562, 'categories': [{'id': '300-3200-0030', 'name': 'Church', 'primary': True}, {'id': '900-9300-0221', 'name': 'Residential Area/Building'}]}, {'title': 'Mahalaxmi Store', 'id': 'here:pds:place:356te7ug-dcf9ca0007a2468fa9a20a90910f90fd', 'language': 'en-GB', 'resultType': 'place', 'address': {'label': 'Mahalaxmi Store, Iit Area, Powai, Mumbai 400076, India', 'countryCode': 'IND', 'countryName': 'India', 'stateCode': 'MH', 'state': 'Maharashtra', 'county': 'Mumbai Suburban', 'city': 'Mumbai', 'district': 'Powai', 'subdistrict': 'Iit Area', 'postalCode': '400076'}, 'position': {'lat': 19.12875, 'lng': 72.91945}, 'access': [{'lat': 19.12867, 'lng': 72.91932}], 'distance': 1562, 'categories': [{'id': '600-6300-0066', 'name': 'Grocery', 'primary': True}], 'references': [{'supplier': {'id': 'core'}, 'id': '1143923640'}], 'payment': {'methods': [{'id': 'mastercard', 'accepted': True}]}}, {'title': 'Soujanya Souchalaya', 'id': 'here:pds:place:356te7ug-7d20682f026124ce618095464dccdd38', 'language': 'en', 'resultType': 'place', 'address': {'label': 'Soujanya Souchalaya, Iit Area, Powai, Mumbai 400076, India', 'countryCode': 'IND', 'countryName': 'India', 'stateCode': 'MH', 'state': 'Maharashtra', 'county': 'Mumbai Suburban', 'city': 'Mumbai', 'district': 'Powai', 'subdistrict': 'Iit Area', 'postalCode': '400076'}, 'position': {'lat': 19.12864, 'lng': 72.91941}, 'access': [{'lat': 19.12861, 'lng': 72.91936}], 'distance': 1564, 'categories': [{'id': '800-8700-0198', 'name': 'Public Restroom', 'primary': True}]}, {'title': 'New Popular Book Shop', 'id': 'here:pds:place:356te7ug-f236b0907d104c07b312ed2ec6ef5523', 'language': 'en-GB', 'resultType': 'place', 'address': {'label': 'New Popular Book Shop, Iit Area, Powai, Mumbai 400076, India', 'countryCode': 'IND', 'countryName': 'India', 'stateCode': 'MH', 'state': 'Maharashtra', 'county': 'Mumbai Suburban', 'city': 'Mumbai', 'district': 'Powai', 'subdistrict': 'Iit Area', 'postalCode': '400076'}, 'position': {'lat': 19.12836, 'lng': 72.91926}, 'access': [{'lat': 19.12846, 'lng': 72.91946}], 'distance': 1564, 'categories': [{'id': '600-6900-0095', 'name': 'Office Supply & Services Store', 'primary': True}, {'id': '600-6700-0087', 'name': 'Bookstore'}], 'references': [{'supplier': {'id': 'core'}, 'id': '1144289226'}, {'supplier': {'id': 'core'}, 'id': '1144289589'}], 'contacts': [{'mobile': [{'value': '+918422998818'}, {'value': '+919167369179'}]}]}, {'title': 'Uphar Caterers', 'id': 'here:pds:place:356jx7ps-e5de0421af9a0edfc80422785d941f14', 'language': 'en-GB', 'resultType': 'place', 'address': {'label': 'Uphar Caterers, Iit Area, Powai, Mumbai 400076, India', 'countryCode': 'IND', 'countryName': 'India', 'stateCode': 'MH', 'state': 'Maharashtra', 'county': 'Mumbai Suburban', 'city': 'Mumbai', 'district': 'Powai', 'subdistrict': 'Iit Area', 'postalCode': '400076'}, 'position': {'lat': 19.12836, 'lng': 72.91926}, 'access': [{'lat': 19.12846, 'lng': 72.91946}], 'distance': 1564, 'categories': [{'id': '100-1000-0000', 'name': 'Restaurant', 'primary': True}], 'references': [{'supplier': {'id': 'core'}, 'id': '1144289227'}], 'foodTypes': [{'id': '202-000', 'name': 'Indian', 'primary': True}]}, {'title': 'K C General Stores', 'id': 'here:pds:place:356jx7ps-377f8d9be62401d17f14e20c2c88ab9a', 'language': 'en-GB', 'resultType': 'place', 'address': {'label': 'K C General Stores, Iit Area, Powai, Mumbai 400076, India', 'countryCode': 'IND', 'countryName': 'India', 'stateCode': 'MH', 'state': 'Maharashtra', 'county': 'Mumbai Suburban', 'city': 'Mumbai', 'district': 'Powai', 'subdistrict': 'Iit Area', 'postalCode': '400076'}, 'position': {'lat': 19.12836, 'lng': 72.91926}, 'access': [{'lat': 19.12846, 'lng': 72.91946}], 'distance': 1564, 'categories': [{'id': '600-6300-0066', 'name': 'Grocery', 'primary': True}], 'references': [{'supplier': {'id': 'core'}, 'id': '1144289228'}]}, {'title': 'Hira SEAT Works', 'id': 'here:pds:place:356jx7ps-984da33c790206465a5346cfde68ecda', 'language': 'en-GB', 'resultType': 'place', 'address': {'label': 'Hira SEAT Works, Iit Area, Powai, Mumbai 400076, India', 'countryCode': 'IND', 'countryName': 'India', 'stateCode': 'MH', 'state': 'Maharashtra', 'county': 'Mumbai Suburban', 'city': 'Mumbai', 'district': 'Powai', 'subdistrict': 'Iit Area', 'postalCode': '400076'}, 'position': {'lat': 19.12911, 'lng': 72.91968}, 'access': [{'lat': 19.12922, 'lng': 72.91969}], 'distance': 1566, 'categories': [{'id': '700-7200-0275', 'name': 'Repair and Maintenance Services', 'primary': True}], 'references': [{'supplier': {'id': 'core'}, 'id': '1144289470'}], 'contacts': [{'phone': [{'value': '+919769304820'}], 'mobile': [{'value': '+919769304820'}]}]}, {'title': 'Azad Fabricators', 'id': 'here:pds:place:356jx7ps-8c63be559e010767afa218f5f09d205a', 'language': 'en-GB', 'resultType': 'place', 'address': {'label': 'Azad Fabricators, K V Wagh Marg, Iit Area-Jyotiba Phule NGR, Powai, Mumbai 400076, India', 'countryCode': 'IND', 'countryName': 'India', 'stateCode': 'MH', 'state': 'Maharashtra', 'county': 'Mumbai Suburban', 'city': 'Mumbai', 'district': 'Powai', 'subdistrict': 'Iit Area-Jyotiba Phule NGR', 'street': 'K V Wagh Marg', 'postalCode': '400076'}, 'position': {'lat': 19.12954, 'lng': 72.91992}, 'access': [{'lat': 19.12954, 'lng': 72.91992}], 'distance': 1570, 'categories': [{'id': '700-7200-0275', 'name': 'Repair and Maintenance Services', 'primary': True}], 'references': [{'supplier': {'id': 'core'}, 'id': '1144289612'}], 'contacts': [{'mobile': [{'value': '+919588757058'}, {'value': '+919769484177'}]}]}, {'title': 'Navin Stores', 'id': 'here:pds:place:356jx7ps-9e0aa11a40e90522c99bd3bc2b74cf06', 'language': 'en-GB', 'resultType': 'place', 'address': {'label': 'Navin Stores, Service Road, Ramabai Ambedkar NGR, Powai, Mumbai 400076, India', 'countryCode': 'IND', 'countryName': 'India', 'stateCode': 'MH', 'state': 'Maharashtra', 'county': 'Mumbai Suburban', 'city': 'Mumbai', 'district': 'Powai', 'subdistrict': 'Ramabai Ambedkar NGR', 'street': 'Service Road', 'postalCode': '400076'}, 'position': {'lat': 19.12771, 'lng': 72.919}, 'access': [{'lat': 19.12763, 'lng': 72.91914}], 'distance': 1576, 'categories': [{'id': '600-6300-0066', 'name': 'Grocery', 'primary': True}], 'references': [{'supplier': {'id': 'core'}, 'id': '1144289070'}]}, {'title': 'Samarpan Printing', 'id': 'here:pds:place:356te7ug-ee8e21673ca64ea8ad078658aabcd72f', 'language': 'en-GB', 'resultType': 'place', 'address': {'label': 'Samarpan Printing, K V Wagh Marg, Iit Area-Jyotiba Phule NGR, Powai, Mumbai 400078, India', 'countryCode': 'IND', 'countryName': 'India', 'stateCode': 'MH', 'state': 'Maharashtra', 'county': 'Mumbai Suburban', 'city': 'Mumbai', 'district': 'Powai', 'subdistrict': 'Iit Area-Jyotiba Phule NGR', 'street': 'K V Wagh Marg', 'postalCode': '400078'}, 'position': {'lat': 19.12969, 'lng': 72.92005}, 'access': [{'lat': 19.12968, 'lng': 72.91991}], 'distance': 1576, 'categories': [{'id': '600-6900-0095', 'name': 'Office Supply & Services Store', 'primary': True}, {'id': '700-7250-0136', 'name': 'Business Facility'}]}, {'title': 'Girisja Beauty Parlour', 'id': 'here:pds:place:356te7ug-6eea340cf5f14ffa9132ec552e48addb', 'language': 'en-GB', 'resultType': 'place', 'address': {'label': 'Girisja Beauty Parlour, K V Wagh Marg, Iit Area-Jyotiba Phule NGR, Powai, Mumbai 400078, India', 'countryCode': 'IND', 'countryName': 'India', 'stateCode': 'MH', 'state': 'Maharashtra', 'county': 'Mumbai Suburban', 'city': 'Mumbai', 'district': 'Powai', 'subdistrict': 'Iit Area-Jyotiba Phule NGR', 'street': 'K V Wagh Marg', 'postalCode': '400078'}, 'position': {'lat': 19.12968, 'lng': 72.92005}, 'access': [{'lat': 19.12967, 'lng': 72.91991}], 'distance': 1577, 'categories': [{'id': '600-6950-0000', 'name': 'Hair & Beauty', 'primary': True}, {'id': '700-7250-0136', 'name': 'Business Facility'}], 'contacts': [{'mobile': [{'value': '+918384860917'}]}]}, {'title': 'Mauli Tyre Services', 'id': 'here:pds:place:356te7ug-42c62d043f444237b38ae70c0e203890', 'language': 'en-GB', 'resultType': 'place', 'address': {'label': 'Mauli Tyre Services, Service Road, Iit Area-Jyotiba Phule NGR, Powai, Mumbai 400076, India', 'countryCode': 'IND', 'countryName': 'India', 'stateCode': 'MH', 'state': 'Maharashtra', 'county': 'Mumbai Suburban', 'city': 'Mumbai', 'district': 'Powai', 'subdistrict': 'Iit Area-Jyotiba Phule NGR', 'street': 'Service Road', 'postalCode': '400076'}, 'position': {'lat': 19.12899, 'lng': 72.91978}, 'access': [{'lat': 19.12887, 'lng': 72.91984}], 'distance': 1582, 'categories': [{'id': '700-7850-0122', 'name': 'Car Repair', 'primary': True}], 'references': [{'supplier': {'id': 'core'}, 'id': '1204553256'}]}, {'title': 'Powai Building', 'id': 'here:pds:place:356te7ug-73cd3c9ba5644693bba3df77aef46777', 'language': 'en', 'resultType': 'place', 'address': {'label': 'Powai Building, K V Wagh Marg, Iit Area-Jyotiba Phule NGR, Powai, Mumbai 400076, India', 'countryCode': 'IND', 'countryName': 'India', 'stateCode': 'MH', 'state': 'Maharashtra', 'county': 'Mumbai Suburban', 'city': 'Mumbai', 'district': 'Powai', 'subdistrict': 'Iit Area-Jyotiba Phule NGR', 'street': 'K V Wagh Marg', 'postalCode': '400076'}, 'position': {'lat': 19.12904, 'lng': 72.91982}, 'access': [{'lat': 19.12905, 'lng': 72.91997}], 'distance': 1583, 'categories': [{'id': '700-7400-0141', 'name': 'Business Services', 'primary': True}]}, {'title': 'Kanchan Honda', 'id': 'here:pds:place:356te7ug-fd45b8e3e1d331c99b4bacb3c862a443', 'language': 'en', 'resultType': 'place', 'address': {'label': 'Kanchan Honda, Service Road, Tirandaz-Iit Market Area, Powai, Mumbai 400076, India', 'countryCode': 'IND', 'countryName': 'India', 'stateCode': 'MH', 'state': 'Maharashtra', 'county': 'Mumbai Suburban', 'city': 'Mumbai', 'district': 'Powai', 'subdistrict': 'Tirandaz-Iit Market Area', 'street': 'Service Road', 'postalCode': '400076'}, 'position': {'lat': 19.12718, 'lng': 72.91873}, 'access': [{'lat': 19.12717, 'lng': 72.91874}], 'distance': 1584, 'categories': [{'id': '700-7200-0268', 'name': 'Motorcycle Service and Maintenance', 'primary': True}], 'contacts': [{'mobile': [{'value': '+919082486727'}]}], 'openingHours': [{'text': ['Tue-Sun: 10:00 - 20:00'], 'isOpen': True, 'structured': [{'start': 'T100000', 'duration': 'PT10H00M', 'recurrence': 'FREQ:DAILY;BYDAY:TU,WE,TH,FR,SA,SU'}]}]}, {'title': 'Jaisingh Tyre Punchering & Repairing', 'id': 'here:pds:place:356jx7ps-c4b1e0afeaf3067b646b67ecc40fe82f', 'language': 'en-GB', 'resultType': 'place', 'address': {'label': 'Jaisingh Tyre Punchering & Repairing, Jogeshwri Vikroli Link Road, Iit Area-Jyotiba Phule NGR, Powai, Mumbai 400076, India', 'countryCode': 'IND', 'countryName': 'India', 'stateCode': 'MH', 'state': 'Maharashtra', 'county': 'Mumbai Suburban', 'city': 'Mumbai', 'district': 'Powai', 'subdistrict': 'Iit Area-Jyotiba Phule NGR', 'street': 'Jogeshwri Vikroli Link Road', 'postalCode': '400076'}, 'position': {'lat': 19.12896, 'lng': 72.91979}, 'access': [{'lat': 19.12887, 'lng': 72.91984}], 'distance': 1584, 'categories': [{'id': '700-7850-0125', 'name': 'Tire Repair', 'primary': True}], 'references': [{'supplier': {'id': 'core'}, 'id': '1144289471'}], 'contacts': [{'mobile': [{'value': '+919869304820'}]}]}, {'title': 'New Clny, Kanjurmarg West, Mumbai, Maharashtra, India', 'id': 'here:cm:namedplace:29392113', 'language': 'en', 'resultType': 'locality', 'localityType': 'subdistrict', 'address': {'label': 'New Clny, Kanjurmarg West, Mumbai, Maharashtra, India', 'countryCode': 'IND', 'countryName': 'India', 'stateCode': 'MH', 'state': 'Maharashtra', 'county': 'Mumbai Suburban', 'city': 'Mumbai', 'district': 'Kanjurmarg West', 'subdistrict': 'New Clny', 'postalCode': '400078'}, 'position': {'lat': 19.13104, 'lng': 72.92063}, 'distance': 1585, 'mapView': {'west': 72.91959, 'south': 19.12587, 'east': 72.92902, 'north': 19.13955}}, {'title': 'S K Engineering & Fabrication Works', 'id': 'here:pds:place:356jx7ps-2ca3adf021e300e81f4e210b75c58894', 'language': 'en-GB', 'resultType': 'place', 'address': {'label': 'S K Engineering & Fabrication Works, K V Wagh Marg, Iit Area-Jyotiba Phule NGR, Powai, Mumbai 400076, India', 'countryCode': 'IND', 'countryName': 'India', 'stateCode': 'MH', 'state': 'Maharashtra', 'county': 'Mumbai Suburban', 'city': 'Mumbai', 'district': 'Powai', 'subdistrict': 'Iit Area-Jyotiba Phule NGR', 'street': 'K V Wagh Marg', 'postalCode': '400076'}, 'position': {'lat': 19.129, 'lng': 72.91983}, 'access': [{'lat': 19.12901, 'lng': 72.91997}], 'distance': 1586, 'categories': [{'id': '700-7250-0136', 'name': 'Business Facility', 'primary': True}], 'references': [{'supplier': {'id': 'core'}, 'id': '1144289614'}], 'contacts': [{'mobile': [{'value': '+919320197166'}, {'value': '+919820161773'}]}]}, {'title': 'Nityanand Paan', 'id': 'here:pds:place:356te7ug-46eccce8cf0e49fbab08bcfec2d1a83e', 'language': 'en', 'resultType': 'place', 'address': {'label': 'Nityanand Paan, Service Road, Tirandaz-Iit Market Area, Powai, Mumbai 400076, India', 'countryCode': 'IND', 'countryName': 'India', 'stateCode': 'MH', 'state': 'Maharashtra', 'county': 'Mumbai Suburban', 'city': 'Mumbai', 'district': 'Powai', 'subdistrict': 'Tirandaz-Iit Market Area', 'street': 'Service Road', 'postalCode': '400076'}, 'position': {'lat': 19.12723, 'lng': 72.9188}, 'access': [{'lat': 19.12724, 'lng': 72.9188}], 'distance': 1587, 'categories': [{'id': '600-6900-0096', 'name': 'Specialty Store', 'primary': True}, {'id': '100-1000-0000', 'name': 'Restaurant'}, {'id': '900-9300-0221', 'name': 'Residential Area/Building'}], 'contacts': [{'phone': [{'value': '+912225741135'}, {'value': '+919594797898'}]}]}, {'title': 'Srishti Complex', 'id': 'here:pds:place:356te7ug-102be4f1a6484e186cf09d31682bed6b', 'language': 'en', 'resultType': 'place', 'address': {'label': 'Srishti Complex, B/12, New Clny, Kanjurmarg West, Mumbai 400078, India', 'countryCode': 'IND', 'countryName': 'India', 'stateCode': 'MH', 'state': 'Maharashtra', 'county': 'Mumbai Suburban', 'city': 'Mumbai', 'district': 'Kanjurmarg West', 'subdistrict': 'New Clny', 'postalCode': '400078', 'houseNumber': 'B/12'}, 'position': {'lat': 19.13029, 'lng': 72.9204}, 'access': [{'lat': 19.13025, 'lng': 72.9205}], 'distance': 1587, 'categories': [{'id': '700-7250-0136', 'name': 'Business Facility', 'primary': True}]}, {'title': 'Hotel Mahendra Tea & Cold Drink House', 'id': 'here:pds:place:356jx7ps-527a86083303092b0ef7b3c2a2977cd5', 'language': 'en-GB', 'resultType': 'place', 'address': {'label': 'Hotel Mahendra Tea & Cold Drink House, Tirandaz-Iit Market Area, Powai, Mumbai 400076, India', 'countryCode': 'IND', 'countryName': 'India', 'stateCode': 'MH', 'state': 'Maharashtra', 'county': 'Mumbai Suburban', 'city': 'Mumbai', 'district': 'Powai', 'subdistrict': 'Tirandaz-Iit Market Area', 'postalCode': '400076'}, 'position': {'lat': 19.12755, 'lng': 72.91903}, 'access': [{'lat': 19.12756, 'lng': 72.91912}], 'distance': 1588, 'categories': [{'id': '600-6900-0096', 'name': 'Specialty Store', 'primary': True}], 'references': [{'supplier': {'id': 'core'}, 'id': '1049031552'}]}, {'title': 'Panchratna Cold Drinks & Chinese', 'id': 'here:pds:place:356jx7ps-0458ae9c392f0ccbf1bbe76d52ed7f8c', 'language': 'en-GB', 'resultType': 'place', 'address': {'label': 'Panchratna Cold Drinks & Chinese, Jogeshwri Vikroli Link Road, Iit Area-Jyotiba Phule NGR, Powai, Mumbai 400076, India', 'countryCode': 'IND', 'countryName': 'India', 'stateCode': 'MH', 'state': 'Maharashtra', 'county': 'Mumbai Suburban', 'city': 'Mumbai', 'district': 'Powai', 'subdistrict': 'Iit Area-Jyotiba Phule NGR', 'street': 'Jogeshwri Vikroli Link Road', 'postalCode': '400076'}, 'position': {'lat': 19.129, 'lng': 72.91986}, 'access': [{'lat': 19.12889, 'lng': 72.9199}], 'distance': 1589, 'categories': [{'id': '100-1000-0000', 'name': 'Restaurant', 'primary': True}], 'references': [{'supplier': {'id': 'core'}, 'id': '1144289469'}], 'foodTypes': [{'id': '201-000', 'name': 'Chinese', 'primary': True}, {'id': '800-062', 'name': 'Chicken'}]}, {'title': 'Das General Store', 'id': 'here:pds:place:356te7ug-16a6503428dc4e859466d8b0eaa08b91', 'language': 'en-GB', 'resultType': 'place', 'address': {'label': 'Das General Store, K V Wagh Marg, Iit Area-Jyotiba Phule NGR, Powai, Mumbai 400078, India', 'countryCode': 'IND', 'countryName': 'India', 'stateCode': 'MH', 'state': 'Maharashtra', 'county': 'Mumbai Suburban', 'city': 'Mumbai', 'district': 'Powai', 'subdistrict': 'Iit Area-Jyotiba Phule NGR', 'street': 'K V Wagh Marg', 'postalCode': '400078'}, 'position': {'lat': 19.12929, 'lng': 72.92}, 'access': [{'lat': 19.12934, 'lng': 72.91994}], 'distance': 1589, 'categories': [{'id': '700-7400-0141', 'name': 'Business Services', 'primary': True}]}, {'title': 'Mahalaxmi General Store', 'id': 'here:pds:place:3561r4ve-a5c52effd5fd0c53b37fd8e18d016904', 'language': 'en-GB', 'resultType': 'place', 'address': {'label': 'Mahalaxmi General Store, Service Road, Tirandaz-Iit Market Area, Powai, Mumbai 400076, India', 'countryCode': 'IND', 'countryName': 'India', 'stateCode': 'MH', 'state': 'Maharashtra', 'county': 'Mumbai Suburban', 'city': 'Mumbai', 'district': 'Powai', 'subdistrict': 'Tirandaz-Iit Market Area', 'street': 'Service Road', 'postalCode': '400076'}, 'position': {'lat': 19.12735, 'lng': 72.91891}, 'access': [{'lat': 19.12735, 'lng': 72.91891}], 'distance': 1589, 'categories': [{'id': '600-6900-0101', 'name': 'Flowers & Jewelry', 'primary': True}, {'id': '600-6300-0066', 'name': 'Grocery'}, {'id': '600-6900-0000', 'name': 'Consumer Goods'}, {'id': '600-6900-0099', 'name': 'General Merchandise'}]}, {'title': 'Ek Kash Cafe', 'id': 'here:pds:place:356te7ug-b51fa25593084c76a6ee42622e407b5c', 'language': 'en', 'resultType': 'place', 'address': {'label': 'Ek Kash Cafe, Adi Shankaracharya Marg, Iit Area-Jyotiba Phule NGR, Powai, Mumbai 400076, India', 'countryCode': 'IND', 'countryName': 'India', 'stateCode': 'MH', 'state': 'Maharashtra', 'county': 'Mumbai Suburban', 'city': 'Mumbai', 'district': 'Powai', 'subdistrict': 'Iit Area-Jyotiba Phule NGR', 'street': 'Adi Shankaracharya Marg', 'postalCode': '400076'}, 'position': {'lat': 19.1289, 'lng': 72.91982}, 'access': [{'lat': 19.12878, 'lng': 72.91988}], 'distance': 1590, 'categories': [{'id': '100-1000-0007', 'name': 'Cafeteria', 'primary': True}, {'id': '100-1100-0010', 'name': 'Coffee Shop'}], 'contacts': [{'phone': [{'value': '+918879424449'}]}]}, {'title': 'New Azad Hair Cutting Saloon', 'id': 'here:pds:place:3561r4ve-95e8777edde502a5c84ee0a77b30e940', 'language': 'en', 'resultType': 'place', 'address': {'label': 'New Azad Hair Cutting Saloon, Service Road, Tirandaz-Iit Market Area, Powai, Mumbai 400076, India', 'countryCode': 'IND', 'countryName': 'India', 'stateCode': 'MH', 'state': 'Maharashtra', 'county': 'Mumbai Suburban', 'city': 'Mumbai', 'district': 'Powai', 'subdistrict': 'Tirandaz-Iit Market Area', 'street': 'Service Road', 'postalCode': '400076'}, 'position': {'lat': 19.12736, 'lng': 72.91892}, 'access': [{'lat': 19.12738, 'lng': 72.91892}], 'distance': 1590, 'categories': [{'id': '600-6950-0000', 'name': 'Hair & Beauty', 'primary': True}]}, {'title': 'Rupam Studio', 'id': 'here:pds:place:356te7ug-882d68bba33749b6a1e7aa29dce43d52', 'language': 'en', 'resultType': 'place', 'address': {'label': 'Rupam Studio, Service Road, Tirandaz-Iit Market Area, Powai, Mumbai 400076, India', 'countryCode': 'IND', 'countryName': 'India', 'stateCode': 'MH', 'state': 'Maharashtra', 'county': 'Mumbai Suburban', 'city': 'Mumbai', 'district': 'Powai', 'subdistrict': 'Tirandaz-Iit Market Area', 'street': 'Service Road', 'postalCode': '400076'}, 'position': {'lat': 19.12744, 'lng': 72.91898}, 'access': [{'lat': 19.12744, 'lng': 72.91898}], 'distance': 1590, 'categories': [{'id': '600-6900-0096', 'name': 'Specialty Store', 'primary': True}]}, {'title': 'Ivana Beauty Parlour & Classes', 'id': 'here:pds:place:3561r4ve-532a61d9ac27039b3a3f4cec48355007', 'language': 'en', 'resultType': 'place', 'address': {'label': 'Ivana Beauty Parlour & Classes, Adi Shankaracharya Marg, Tirandaz-Iit Market Area, Powai, Mumbai 400076, India', 'countryCode': 'IND', 'countryName': 'India', 'stateCode': 'MH', 'state': 'Maharashtra', 'county': 'Mumbai Suburban', 'city': 'Mumbai', 'district': 'Powai', 'subdistrict': 'Tirandaz-Iit Market Area', 'street': 'Adi Shankaracharya Marg', 'postalCode': '400076'}, 'position': {'lat': 19.12718, 'lng': 72.91881}, 'access': [{'lat': 19.12727, 'lng': 72.9187}], 'distance': 1591, 'categories': [{'id': '600-6950-0000', 'name': 'Hair & Beauty', 'primary': True}]}, {'title': 'Bharti Jewellers', 'id': 'here:pds:place:3561r4ve-fade9a85ad6f02c26d83ada720a93f76', 'language': 'en', 'resultType': 'place', 'address': {'label': 'Bharti Jewellers, Service Road, Tirandaz-Iit Market Area, Powai, Mumbai 400076, India', 'countryCode': 'IND', 'countryName': 'India', 'stateCode': 'MH', 'state': 'Maharashtra', 'county': 'Mumbai Suburban', 'city': 'Mumbai', 'district': 'Powai', 'subdistrict': 'Tirandaz-Iit Market Area', 'street': 'Service Road', 'postalCode': '400076'}, 'position': {'lat': 19.12745, 'lng': 72.919}, 'access': [{'lat': 19.12745, 'lng': 72.91899}], 'distance': 1591, 'categories': [{'id': '600-6900-0101', 'name': 'Flowers & Jewelry', 'primary': True}]}]}